stop_id,stop_name,stop_desc,stop_lon,stop_lat
101,"Helyi autóbusz-állomás","",17.790058,46.353944
102,"Helyi autóbusz-állomás","",17.79013,46.353851
103,"Helyi autóbusz-állomás","",17.790559,46.353864
104,"Helyi autóbusz-állomás","",17.79098,46.353708
105,"Helyi autóbusz-állomás","",17.791053,46.353758
106,"Helyi autóbusz-állomás","",17.791378,46.353631
107,"Helyi autóbusz-állomás","",17.791546,46.353674
108,"Helyi autóbusz-állomás","",17.79171,46.353564
109,"Helyi autóbusz-állomás","",17.79211,46.353549
110,"Helyi autóbusz-állomás","",17.79209,46.353484
111,"Helyi autóbusz-állomás","",17.792456,46.353408
112,"Helyi autóbusz-állomás","",17.793026,46.353295
120,"Helyi autóbusz-állomás","",17.7933612,46.353366
201,"Berzsenyi u. felüljáró","",17.785368,46.356496
202,"Berzsenyi u. felüljáró","",17.784656,46.355323
203,"Berzsenyi u. felüljáró","",17.784867,46.355406
204,"Berzsenyi u. felüljáró","",17.785847,46.355098
801,"Füredi u. csp.","",17.781451,46.363761
802,"Füredi u. csp.","",17.782521,46.363155
803,"Füredi u. csp.","",17.78242,46.364555
804,"Füredi u. csp.","",17.783323,46.36394
1201,"Városi könyvtár","",17.776984,46.36313
1202,"Városi könyvtár","",17.779185,46.363396
1401,"Vasútköz","",17.770321,46.363941
1402,"Vasútköz","",17.770503,46.363737
1601,"Hajnóczy u. csp.","",17.765327,46.366725
1602,"Hajnóczy u. csp.","",17.765124,46.366737
1603,"Hajnóczy u. csp.","",17.763714,46.366094
1604,"Hajnóczy u. csp.","",17.765918,46.365568
2701,"Raktár u.","",17.769202,46.379373
2901,"Tompa M. u.","",17.778585,46.353738
2902,"Tompa M. u.","",17.77867,46.353673
3101,"Kölcsey u.","",17.774299,46.352766
3102,"Kölcsey u.","",17.774628,46.352779
3501,"Eger u.","",17.767928,46.348416
3502,"Eger u.","",17.768143,46.348267
3701,"Kapoli A. u.","",17.76328,46.347673
3702,"Kapoli A. u.","",17.76334,46.347351
3901,"Egyenesi u. 42.","",17.763222,46.345199
3902,"Egyenesi u. 42.","",17.763348,46.345322
4101,"Egyenesi u. forduló","",17.763483,46.339
4401,"Kecelhegyi iskola","",17.765594,46.353505
4501,"67-es sz. út","",17.782719,46.351172
4502,"67-es sz. út","",17.78189,46.350693
4801,"Gönczi F. u.","",17.774572,46.344759
4901,"Koppány vezér u.","",17.771347,46.345096
5001,"Bartók B. u.","",17.790428,46.351489
5002,"Bartók B. u.","",17.790546,46.351467
5401,"Táncsics M. u.","",17.787405,46.345626
5402,"Táncsics M. u.","",17.787425,46.345522
5601,"Zichy u.","",17.789208,46.34163
5602,"Zichy u.","",17.789026,46.3421
6001,"Gyertyános","",17.789377,46.33031
6002,"Gyertyános","",17.789526,46.330201
6401,"Kertbarát alsó","",17.784776,46.320042
6402,"Kertbarát alsó","",17.784824,46.320183
6803,"Fenyves u.","",17.782573,46.308356
6804,"Fenyves u.","",17.782519,46.308382
7401,"Töröcske, forduló","",17.781657,46.302467
7501,"Jókai liget","",17.791014,46.351286
7502,"Jókai liget","",17.791455,46.352373
8101,"Ballakúti u.","",17.799174,46.34218
8102,"Ballakúti u.","",17.800221,46.341428
8301,"Szigetvári u. 139.","",17.801639,46.339931
8302,"Szigetvári u. 139.","",17.802034,46.339573
8501,"Nyár u.","",17.806874,46.340344
8502,"Nyár u.","",17.806771,46.340306
8701,"Lonkahegy","",17.810014,46.341027
8702,"Lonkahegy","",17.809848,46.341065
8801,"Vasútállomás","",17.79618,46.352878
8901,"Baross G. u.","",17.803303,46.352847
8902,"Baross G. u.","",17.800349,46.352915
9101,"Csalogány u.","",17.808594,46.351162
9102,"Csalogány u.","",17.80918,46.351172
9501,"Béla király u.","",17.815058,46.348333
9801,"Hársfa u.","",17.802077,46.357184
9802,"Hársfa u.","",17.800953,46.357196
10401,"Gyár u.","",17.815205,46.356706
10402,"Gyár u.","",17.814504,46.356994
10601,"Pécsi úti iskola","",17.818576,46.356128
10602,"Pécsi úti iskola","",17.819933,46.356001
10801,"Nádasdi u.","",17.826831,46.354608
10802,"Nádasdi u.","",17.825069,46.355052
10803,"Nádasdi u.","",17.826073,46.354383
11001,"Móricz Zs. u.","",17.836474,46.354287
11002,"Móricz Zs. u.","",17.835344,46.353841
11201,"Pécsi u. 227.","",17.840157,46.357595
11202,"Pécsi u. 227.","",17.839656,46.357395
11401,"Várhegy feljáró","",17.843785,46.359294
11402,"Várhegy feljáró","",17.843652,46.359303
11601,"Kaposszentjakab, forduló","",17.847299,46.359488
11701,"Hold u.","",17.834631,46.34637
12901,"Villamossági Gyár","",17.823763,46.377725
12902,"Villamossági Gyár","",17.823592,46.377626
13201,"Kaposvári Egyetem","",17.825316,46.383796
13202,"Kaposvári Egyetem","",17.824945,46.382838
13203,"Kaposvári Egyetem","",17.826036,46.384577
13501,"Toponár, posta","",17.827726,46.390549
13502,"Toponár, posta","",17.828108,46.391347
13701,"Toponár, Orci elágazás","",17.833526,46.394289
13702,"Toponár, Orci elágazás","",17.833854,46.395885
13703,"Toponár, Orci elágazás","",17.834408,46.394729
14401,"Toponár, forduló","",17.83678,46.40784
14601,"Toponár, Erdei F. u.","",17.845347,46.396206
14701,"Toponár, Szabó P. u.","",17.844537,46.392561
14801,"Kisgát","",17.808726,46.365055
14802,"Kisgát","",17.807489,46.365524
15001,"Pázmány P. u.","",17.79889,46.365032
15002,"Pázmány P. u.","",17.79845,46.365192
15301,"Szent Imre u. 29.","",17.793902,46.361621
15401,"Szent Imre u. 13.","",17.793884,46.360185
15501,"Széchenyi tér","",17.794205,46.356928
15901,Videoton,"",17.820901,46.363915
15902,"Videoton","",17.820738,46.364033
16301,"NABI","",17.848907,46.365015
16401,"Virág u.","",17.803876,46.358415
16402,"Virág u.","",17.803739,46.358738
16601,"Pázmány P. u. 1.","",17.801273,46.361025
16602,"Pázmány P. u. 1.","",17.801309,46.360908
16801,"Vöröstelek u.","",17.799969,46.364167
16802,"Vöröstelek u.","",17.799876,46.364332
17001,"Hegyi u.","",17.797868,46.367666
17002,"Hegyi u.","",17.797766,46.36765
17201,"Buzsáki u.","",17.792329,46.36795
17202,"Buzsáki u.","",17.792373,46.367887
17401,"Arany J. tér","",17.788469,46.366567
17402,"Arany J. tér","",17.788359,46.366854
17403,"Arany J. tér","",17.790234,46.367598
17701,"Arany J. u.","",17.784484,46.366787
17801,"Tallián Gy. u. 4.","",17.797291,46.357141
17901,"Kórház","",17.7973,46.360169
18001,"Tallián Gy. u. 56.","",17.797222,46.362756
18101,"Tallián Gy. u. 82.","",17.797217,46.364619
18701,"Búzavirág u.","",17.781881,46.375821
18702,"Búzavirág u.","",17.781886,46.374775
18901,"Laktanya","",17.781317,46.378908
18902,"Laktanya","",17.781169,46.378415
19101,"Volán-telep","",17.779282,46.390375
19102,"Volán-telep","",17.779156,46.389628
19701,"Kaposfüred, központ","",17.778271,46.413967
19702,"Kaposfüred, központ","",17.778464,46.412996
19703,"Kaposfüred, központ","",17.777457,46.413473
20001,"Kaposfüred, forduló","",17.775467,46.42303
20201,"Kaposfüred, vá.","",17.759442,46.41415
20301,"Zárda u.","",17.787703,46.358802
20401,"Honvéd u.","",17.787993,46.363158
20402,"Honvéd u.","",17.788024,46.364301
20601,"Losonc-köz","",17.787876,46.370133
20602,"Losonc-köz","",17.787959,46.369498
20801,"Brassó u.","",17.787414,46.372095
20901,"Sopron u.","",17.785773,46.375539
21001,"Nagyszeben u.","",17.787099,46.373202
21101,"Somssich P. u.","",17.789075,46.36059
21601,"Mátyás k. u., forduló","",17.758932,46.366098
21701,"Állatkórház","",17.771328,46.352113
21702,"Állatkórház","",17.77143,46.352072
21901,"Beszédes J. u.","",17.763232,46.341854
21902,"Beszédes J. u.","",17.763295,46.342038
22101,"Rózsa u.","",17.779403,46.346283
22102,"Rózsa u.","",17.779583,46.34629
22103,"Rózsa u.","",17.778775,46.345863
22301,"Vikár B. u.","",17.812303,46.349927
22302,"Vikár B. u.","",17.812114,46.350322
22501,"Toponár, Orci út","",17.841595,46.395334
22502,"Toponár, Orci út","",17.84146,46.395367
22901,"Toldi lakónegyed","",17.782614,46.367266
22902,"Toldi lakónegyed","",17.782415,46.367428
23101,"Kinizsi ltp.","",17.782575,46.371844
23102,"Kinizsi ltp.","",17.782557,46.371188
23501,"Állomás u.","",17.762909,46.413198
23502,"Állomás u.","",17.76257,46.413111
24501,"Fő u. 48","",17.798156,46.356765
24801,"Hősök temploma","",17.809826,46.357663
24802,"Hősök temploma","",17.8102,46.35774
24803,"Hősök temploma","",17.809291,46.358631
24804,"Hősök temploma","",17.807819,46.357917
25801,"Kertbarát felső","",17.787104,46.32504
25802,"Kertbarát felső","",17.787293,46.325102
26601,"Mező u. csp.","",17.813659,46.364089
26602,"Mező u. csp.","",17.812757,46.363197
26603,"Mező u. csp.","",17.813745,46.363234
26604,"Mező u. csp.","",17.812592,46.363882
26701,"Rendőrség","",17.793807,46.364535
26801,"Szegfű u.","",17.783264,46.34562
26802,"Szegfű u.","",17.783638,46.345591
26901,"Szőlőhegy","",17.786042,46.312753
26902,"Szőlőhegy","",17.786074,46.312871
27101,"Jókai u.","",17.786706,46.345813
27102,"Jókai u.","",17.787093,46.34578
27301,"Erdősor u.","",17.773946,46.345704
27501,"Városi fürdő","",17.797212,46.351411
27601,"Célgazdaság","",17.779858,46.313619
27701,"Nap u.","",17.829033,46.350381
27702,"Nap u.","",17.828967,46.350666
28001,"Répáspuszta","",17.840567,46.429772
31601,"Kőrösi Cs. S. u.","",17.760411,46.358633
31602,"Kőrösi Cs. S. u.","",17.760571,46.358609
31701,"Bethlem G. u.","",17.762098,46.352104
31702,"Bethlem G. u.","",17.762275,46.352209
32001,"Szennyvíztelep","",17.874556,46.360806
33001,"Berzsenyi u. 30.","",17.783914,46.360219
33002,"Berzsenyi u. 30.","",17.783949,46.359015
33201,"Jutai u. 24.","",17.768761,46.370219
33202,"Jutai u. 24.","",17.769098,46.369585
33401,"Tóth Á. u.","",17.767521,46.371917
33402,"Tóth Á. u.","",17.767799,46.371315
33601,"Jutai u. 45.","",17.763584,46.37692
33602,"Jutai u. 45.","",17.763422,46.37702
33801,"Raktár u. 2.","",17.763413,46.378251
33802,"Raktár u. 2.","",17.763237,46.378242
34001,"Kecelhegyalja u.","",17.760869,46.363347
34002,"Kecelhegyalja u.","",17.76106,46.363476
34101,"Magyar Nobel-díjasok","",17.763204,46.348833
34102,"Magyar Nobel-díjasok","",17.763354,46.348642
34401,"Aranyeső u.","",17.790368,46.337689
34402,"Aranyeső u.","",17.790636,46.337417
34601,"Fenyves u. 37/A","",17.78296,46.307646
34602,"Fenyves u. 37/A","",17.783003,46.307721
34801,"Fenyves u. 31.","",17.783385,46.306016
34802,"Fenyves u. 31.","",17.783427,46.306067
35001,"Szigetvári u. 6.","",17.794058,46.349041
35002,"Szigetvári u. 6.","",17.794128,46.349135
35201,"Szigetvári u. 62.","",17.79683,46.345526
35202,"Szigetvári u. 62.","",17.796833,46.345617
35401,"Fő u. 37-39.","",17.795415,46.35677
35503,"Kométa, forduló","",17.822924,46.357943
35901,"Kenyérgyár u. 1.","",17.817056,46.363174
35902,"Kenyérgyár u. 1.","",17.816802,46.362878
36101,"Kenyérgyár u. 3.","",17.81812,46.364647
36201,"Dombóvári u. 4.","",17.833675,46.36392
36202,"Dombóvári u. 4.","",17.833452,46.363943
36401,"Izzó u.","",17.816267,46.367378
36402,"Izzó u.","",17.815445,46.366499
36601,"Guba S. u. 57.","",17.817309,46.368622
36602,"Guba S. u. 57.","",17.817069,46.368544
36801,"Guba S. u. 81.","",17.8213,46.37363
36802,"Guba S. u. 81.","",17.82125,46.373753
37001,"Toponári u. 182.","",17.834138,46.402012
37002,"Toponári u. 182.","",17.83402,46.402044
37201,"Toponári u. 238.","",17.835287,46.40522
37202,"Toponári u. 238.","",17.835126,46.405147
37601,"ÁNTSZ","",17.789065,46.36517
37602,"ÁNTSZ","",17.789281,46.365
37801,"Kaposfüredi u. 12.","",17.779393,46.402657
37802,"Kaposfüredi u. 12.","",17.779263,46.402766
38001,"Kaposfüredi u. 104.","",17.779572,46.408858
38002,"Kaposfüredi u. 104.","",17.779423,46.407549
38201,"Kaposfüredi u. 244.","",17.776467,46.419546
38202,"Kaposfüredi u. 244.","",17.776412,46.419329
40101,"Harangvirág u.","",17.790028,46.334789
40102,"Harangvirág u.","",17.7901,46.334838
40201,"Corso","",17.786027,46.355239
